[{"id":"","name":"くくる薬局","postalcode":"900-0003","address_todofuken":"沖縄県","address_shikuchoson":"那覇市","address":"那覇市安謝1-10-30","shikuchosonCode":"47201","phone":"098-943-7500","openinghours":"月・火・木・金9：00～19：00水・土9：00～17：00","emergency_contact":"無","emergency_contact_phone":"","location":{"type":"Point","coordinates":[127.6952238,26.2338382]}},{"id":"","name":"共創未来天久薬局","postalcode":"900-0005","address_todofuken":"沖縄県","address_shikuchoson":"那覇市","address":"那覇市天久９１０","shikuchosonCode":"47201","phone":"098-860-7881","openinghours":"月～金・祝9:00～19:00土9:00～14:00","emergency_contact":"無","emergency_contact_phone":"","location":{"type":"Point","coordinates":[127.6853266,26.2334892]}},{"id":"","name":"ドラッグイレブン薬局新都心おもろまち店","postalcode":"900-0006","address_todofuken":"沖縄県","address_shikuchoson":"那覇市","address":"那覇市おもろまち３－５－２２","shikuchosonCode":"47201","phone":"098-860-3335","openinghours":"月～土9:00～18:00","emergency_contact":"有","emergency_contact_phone":"080-2777-0243","location":{"type":"Point","coordinates":[127.6937558,26.2298721]}},{"id":"","name":"とまり薬局","postalcode":"900-0012","address_todofuken":"沖縄県","address_shikuchoson":"那覇市","address":"那覇市泊１－１１－７","shikuchosonCode":"47201","phone":"098-866-1786","openinghours":"月～金9:00～18:00土9:00～13:30","emergency_contact":"無","emergency_contact_phone":"","location":{"type":"Point","coordinates":[127.6901329,26.2218274]}},{"id":"","name":"ミント薬局","postalcode":"900-0013","address_todofuken":"沖縄県","address_shikuchoson":"那覇市","address":"那覇市牧志２－１７－１７","shikuchosonCode":"47201","phone":"098-862-8887","openinghours":"月・火・木・金・土9:00～18:00","emergency_contact":"無","emergency_contact_phone":"","location":{"type":"Point","coordinates":[127.6859685,26.2189788]}},{"id":"","name":"沖映通り薬局","postalcode":"900-0013","address_todofuken":"沖縄県","address_shikuchoson":"那覇市","address":"那覇市牧志２－１７－１","shikuchosonCode":"47201","phone":"098-861-7912","openinghours":"月火水金8:30～18:00木9:00～18:00土8:30～12:30","emergency_contact":"無","emergency_contact_phone":"","location":{"type":"Point","coordinates":[127.6871885,26.2180451]}}]
